[
  {
    "stationId": "cantho-station-01",
    "name": "Trạm đo lưu lượng Nguyễn Văn Linh",
    "description": "Trạm đo lưu lượng giao thông tại đường Nguyễn Văn Linh, Q. Ninh Kiều",
    "longitude": 105.7469,
    "latitude": 10.0452,
    "dateObserved": "2025-12-03T08:00:00Z",
    "intensity": 450,
    "occupancy": 0.35,
    "averageVehicleSpeed": 42.5,
    "averageVehicleLength": 4.2,
    "congested": false,
    "laneId": 1,
    "roadSegment": "cantho-nvl-001"
  },
  {
    "stationId": "cantho-station-02",
    "name": "Trạm đo lưu lượng Cầu Cần Thơ",
    "description": "Trạm đo lưu lượng giao thông tại đầu cầu Cần Thơ",
    "longitude": 105.7389,
    "latitude": 10.0367,
    "dateObserved": "2025-12-03T08:00:00Z",
    "intensity": 820,
    "occupancy": 0.65,
    "averageVehicleSpeed": 35.0,
    "averageVehicleLength": 5.5,
    "congested": true,
    "laneId": 1,
    "roadSegment": "cantho-bridge-001"
  },
  {
    "stationId": "cantho-station-03",
    "name": "Trạm đo lưu lượng 30 Tháng 4",
    "description": "Trạm đo lưu lượng giao thông tại đường 30/4, Q. Ninh Kiều",
    "longitude": 105.7856,
    "latitude": 10.0312,
    "dateObserved": "2025-12-03T08:00:00Z",
    "intensity": 380,
    "occupancy": 0.28,
    "averageVehicleSpeed": 48.0,
    "averageVehicleLength": 3.8,
    "congested": false,
    "laneId": 2,
    "roadSegment": "cantho-304-001"
  },
  {
    "stationId": "cantho-station-04",
    "name": "Trạm đo lưu lượng Trần Hưng Đạo",
    "description": "Trạm đo lưu lượng giao thông tại đường Trần Hưng Đạo",
    "longitude": 105.7723,
    "latitude": 10.0289,
    "dateObserved": "2025-12-03T08:00:00Z",
    "intensity": 520,
    "occupancy": 0.42,
    "averageVehicleSpeed": 38.5,
    "averageVehicleLength": 4.5,
    "congested": false,
    "laneId": 1,
    "roadSegment": "cantho-thd-001"
  },
  {
    "stationId": "cantho-station-05",
    "name": "Trạm đo lưu lượng Mậu Thân",
    "description": "Trạm đo lưu lượng giao thông tại đường Mậu Thân, Q. Ninh Kiều",
    "longitude": 105.7634,
    "latitude": 10.0398,
    "dateObserved": "2025-12-03T08:00:00Z",
    "intensity": 680,
    "occupancy": 0.55,
    "averageVehicleSpeed": 32.0,
    "averageVehicleLength": 4.8,
    "congested": true,
    "laneId": 1,
    "roadSegment": "cantho-mt-001"
  },
  {
    "stationId": "cantho-station-06",
    "name": "Trạm đo lưu lượng Cách Mạng Tháng 8",
    "description": "Trạm đo lưu lượng giao thông tại đường CMT8",
    "longitude": 105.7512,
    "latitude": 10.0523,
    "dateObserved": "2025-12-03T08:00:00Z",
    "intensity": 290,
    "occupancy": 0.22,
    "averageVehicleSpeed": 52.0,
    "averageVehicleLength": 3.5,
    "congested": false,
    "laneId": 2,
    "roadSegment": "cantho-cmt8-001"
  },
  {
    "stationId": "cantho-station-07",
    "name": "Trạm đo lưu lượng Quốc lộ 91",
    "description": "Trạm đo lưu lượng giao thông tại QL91, hướng về An Giang",
    "longitude": 105.6234,
    "latitude": 10.0789,
    "dateObserved": "2025-12-03T08:00:00Z",
    "intensity": 420,
    "occupancy": 0.38,
    "averageVehicleSpeed": 55.0,
    "averageVehicleLength": 6.2,
    "congested": false,
    "laneId": 1,
    "roadSegment": "cantho-ql91-001"
  },
  {
    "stationId": "cantho-station-08",
    "name": "Trạm đo lưu lượng Ngã Tư Bình Thuỷ",
    "description": "Trạm đo lưu lượng giao thông tại ngã tư Bình Thuỷ",
    "longitude": 105.7312,
    "latitude": 10.0678,
    "dateObserved": "2025-12-03T08:00:00Z",
    "intensity": 580,
    "occupancy": 0.48,
    "averageVehicleSpeed": 28.0,
    "averageVehicleLength": 4.0,
    "congested": true,
    "laneId": 1,
    "roadSegment": "cantho-bt-001"
  },
  {
    "stationId": "cantho-station-09",
    "name": "Trạm đo lưu lượng Bến Ninh Kiều",
    "description": "Trạm đo lưu lượng giao thông khu vực bến Ninh Kiều",
    "longitude": 105.7845,
    "latitude": 10.0345,
    "dateObserved": "2025-12-03T08:00:00Z",
    "intensity": 350,
    "occupancy": 0.30,
    "averageVehicleSpeed": 25.0,
    "averageVehicleLength": 3.2,
    "congested": false,
    "laneId": 1,
    "roadSegment": "cantho-nk-001"
  },
  {
    "stationId": "cantho-station-10",
    "name": "Trạm đo lưu lượng Võ Văn Kiệt",
    "description": "Trạm đo lưu lượng giao thông tại đường Võ Văn Kiệt",
    "longitude": 105.7156,
    "latitude": 10.0234,
    "dateObserved": "2025-12-03T08:00:00Z",
    "intensity": 610,
    "occupancy": 0.52,
    "averageVehicleSpeed": 40.0,
    "averageVehicleLength": 5.0,
    "congested": false,
    "laneId": 2,
    "roadSegment": "cantho-vvk-001"
  }
]
